{
  "lastUpdated": "2026-03-20T10:39:26.620Z",
  "stations": [
    {
      "name": "Accra, Ghana",
      "lat": 5.80399,
      "lon": -0.090984,
      "status": "operational",
      "type": "pop"
    },
    {
      "name": "Adelanto, CA",
      "lat": 34.5828,
      "lon": -117.409,
      "status": "operational",
      "type": "gateway"
    },
    {
      "name": "Aerzen, Germany",
      "lat": 52.0489,
      "lon": 9.2683,
      "status": "operational",
      "type": "gateway"
    },
    {
      "name": "Aguadilla, PR",
      "lat": 18.43,
      "lon": -67.15,
      "status": "operational",
      "type": "gateway"
    },
    {
      "name": "Akita, Japan",
      "lat": 39.72,
      "lon": 140.1024,
      "status": "operational",
      "type": "gateway"
    },
    {
      "name": "Akron, OH",
      "lat": 41.057528,
      "lon": -81.519917,
      "status": "planned",
      "type": "gateway"
    },
    {
      "name": "Alfouvar de Cima, Portugal",
      "lat": 40.5167,
      "lon": -8.25,
      "status": "operational",
      "type": "gateway"
    },
    {
      "name": "Almaty, Kazakhstan",
      "lat": 43.222,
      "lon": 76.8512,
      "status": "operational",
      "type": "pop"
    },
    {
      "name": "Anakie, Australia",
      "lat": -37.953169,
      "lon": 144.328172,
      "status": "operational",
      "type": "gateway"
    },
    {
      "name": "Anchorage, AK",
      "lat": 61.2181,
      "lon": -149.9003,
      "status": "operational",
      "type": "gateway"
    },
    {
      "name": "Anderson, SC",
      "lat": 34.5034,
      "lon": -82.6501,
      "status": "operational",
      "type": "gateway"
    },
    {
      "name": "Angeles, Philippines",
      "lat": 15.145,
      "lon": 120.5887,
      "status": "operational",
      "type": "gateway"
    },
    {
      "name": "Angola, IN",
      "lat": 41.6348,
      "lon": -84.9994,
      "status": "operational",
      "type": "gateway"
    },
    {
      "name": "Aracaju, Brazil",
      "lat": -11.081214,
      "lon": -37.146714,
      "status": "operational",
      "type": "gateway"
    },
    {
      "name": "Arbuckle, CA",
      "lat": 39.02,
      "lon": -122.06,
      "status": "operational",
      "type": "gateway"
    },
    {
      "name": "Arlington, OR",
      "lat": 45.7226,
      "lon": -120.1979,
      "status": "operational",
      "type": "gateway"
    },
    {
      "name": "Arvin, CA",
      "lat": 35.2094,
      "lon": -118.8278,
      "status": "planned",
      "type": "gateway"
    },
    {
      "name": "Ashburn, VA",
      "lat": 39.015278,
      "lon": -77.459722,
      "status": "operational",
      "type": "pop"
    },
    {
      "name": "Ashland, IL",
      "lat": 41.841361,
      "lon": -87.671111,
      "status": "planned",
      "type": "gateway"
    },
    {
      "name": "Atlanta, GA",
      "lat": 33.73775,
      "lon": -84.974,
      "status": "planned",
      "type": "pop"
    },
    {
      "name": "Auckland, NZ",
      "lat": -36.8485,
      "lon": 174.7633,
      "status": "operational",
      "type": "pop"
    },
    {
      "name": "Augusta, Australia",
      "lat": -34.317331,
      "lon": 115.150003,
      "status": "planned",
      "type": "gateway"
    },
    {
      "name": "Awarua, NZ",
      "lat": -46.5294,
      "lon": 168.3781,
      "status": "operational",
      "type": "gateway"
    },
    {
      "name": "Ballinspittle, Ireland",
      "lat": 51.6508,
      "lon": -8.5808,
      "status": "operational",
      "type": "gateway"
    },
    {
      "name": "Bathurst, Australia",
      "lat": -33.436665,
      "lon": 149.52242,
      "status": "operational",
      "type": "gateway"
    },
    {
      "name": "Baxley, GA",
      "lat": 31.7791,
      "lon": -82.3485,
      "status": "operational",
      "type": "gateway"
    },
    {
      "name": "Beekmantown, NY",
      "lat": 44.7629,
      "lon": -73.5754,
      "status": "operational",
      "type": "gateway"
    },
    {
      "name": "Bellingham, WA",
      "lat": 48.7519,
      "lon": -122.4787,
      "status": "operational",
      "type": "gateway"
    },
    {
      "name": "Benkelman, NE",
      "lat": 40.0492,
      "lon": -101.5329,
      "status": "operational",
      "type": "gateway"
    },
    {
      "name": "Blountsville, AL",
      "lat": 33.981,
      "lon": -86.5914,
      "status": "operational",
      "type": "gateway"
    },
    {
      "name": "Bluffdale, UT",
      "lat": 40.47975,
      "lon": -111.904167,
      "status": "planned",
      "type": "gateway"
    },
    {
      "name": "Boca Chica, TX",
      "lat": 26.0621,
      "lon": -97.1668,
      "status": "operational",
      "type": "gateway"
    },
    {
      "name": "Bogantungan, Australia",
      "lat": -23.6478,
      "lon": 147.2956,
      "status": "operational",
      "type": "gateway"
    },
    {
      "name": "Bogota, Colombia",
      "lat": 4.5268,
      "lon": -74.2532,
      "status": "operational",
      "type": "pop"
    },
    {
      "name": "Boise, ID",
      "lat": 43.581083,
      "lon": -116.289972,
      "status": "planned",
      "type": "gateway"
    },
    {
      "name": "Boorowa, Australia",
      "lat": -34.4392,
      "lon": 148.7142,
      "status": "operational",
      "type": "gateway"
    },
    {
      "name": "Boydton, VA",
      "lat": 36.6677,
      "lon": -78.3875,
      "status": "planned",
      "type": "gateway"
    },
    {
      "name": "Brasilia, Brazil",
      "lat": -15.7975,
      "lon": -47.8919,
      "status": "operational",
      "type": "pop"
    },
    {
      "name": "Brewster County, TX",
      "lat": 30.193753,
      "lon": -102.889981,
      "status": "operational",
      "type": "gateway"
    },
    {
      "name": "Brewster, WA",
      "lat": 48.0962,
      "lon": -119.7806,
      "status": "operational",
      "type": "gateway"
    },
    {
      "name": "Bridgewater, CT",
      "lat": 41.545417,
      "lon": -73.354389,
      "status": "planned",
      "type": "gateway"
    },
    {
      "name": "Brisbane, Australia",
      "lat": -27.4698,
      "lon": 153.0251,
      "status": "operational",
      "type": "pop"
    },
    {
      "name": "Bristol, UK",
      "lat": 51.7058,
      "lon": -2.401694,
      "status": "planned",
      "type": "gateway"
    },
    {
      "name": "Broadview, IL",
      "lat": 41.8642,
      "lon": -87.8534,
      "status": "operational",
      "type": "gateway"
    },
    {
      "name": "Broken Hill, Australia",
      "lat": -31.9505,
      "lon": 141.4681,
      "status": "operational",
      "type": "gateway"
    },
    {
      "name": "Brooklyn Park, MN",
      "lat": 45.144028,
      "lon": -93.385778,
      "status": "planned",
      "type": "gateway"
    },
    {
      "name": "Brunswick, ME",
      "lat": 43.9145,
      "lon": -69.9653,
      "status": "operational",
      "type": "gateway"
    },
    {
      "name": "Buenos Aires, Argentina",
      "lat": -34.6037,
      "lon": -58.3816,
      "status": "operational",
      "type": "pop"
    },
    {
      "name": "Bulla Bulling, Australia",
      "lat": -31.1,
      "lon": 121.0167,
      "status": "operational",
      "type": "gateway"
    },
    {
      "name": "Burbank, CA",
      "lat": 34.200111,
      "lon": -118.343833,
      "status": "planned",
      "type": "gateway"
    },
    {
      "name": "Butte, MT",
      "lat": 46.0038,
      "lon": -112.5348,
      "status": "operational",
      "type": "gateway"
    },
    {
      "name": "Cabo San Lucas, Mexico",
      "lat": 22.8905,
      "lon": -109.9167,
      "status": "operational",
      "type": "gateway"
    },
    {
      "name": "Cal-Nev-Air, NV",
      "lat": 35.2988613,
      "lon": -114.8746214,
      "status": "planned",
      "type": "gateway"
    },
    {
      "name": "Caldera, Chile",
      "lat": -27.0667,
      "lon": -70.8167,
      "status": "operational",
      "type": "gateway"
    },
    {
      "name": "Caleta, DR",
      "lat": 18.456,
      "lon": -69.752,
      "status": "operational",
      "type": "gateway"
    },
    {
      "name": "Calgary, Canada",
      "lat": 51.0447,
      "lon": -114.0719,
      "status": "operational",
      "type": "pop"
    },
    {
      "name": "Calrossie, Australia",
      "lat": -36.45,
      "lon": 145.3,
      "status": "operational",
      "type": "gateway"
    },
    {
      "name": "Calverton, NY",
      "lat": 40.908914,
      "lon": -72.797608,
      "status": "operational",
      "type": "gateway"
    },
    {
      "name": "Camaçari, Brazil",
      "lat": -12.6996,
      "lon": -38.3263,
      "status": "operational",
      "type": "gateway"
    },
    {
      "name": "Canyonleigh, Australia",
      "lat": -34.5333,
      "lon": 150.2,
      "status": "operational",
      "type": "gateway"
    },
    {
      "name": "Cass County, ND",
      "lat": 46.93,
      "lon": -97.25,
      "status": "operational",
      "type": "gateway"
    },
    {
      "name": "Cataby, Australia",
      "lat": -30.75,
      "lon": 115.5333,
      "status": "operational",
      "type": "gateway"
    },
    {
      "name": "Cebu(?), Philippines",
      "lat": 10.296,
      "lon": 123.922,
      "status": "planned",
      "type": "gateway"
    },
    {
      "name": "Centennial, CO",
      "lat": 39.591889,
      "lon": -104.846944,
      "status": "planned",
      "type": "gateway"
    },
    {
      "name": "Chalfont Grove, UK",
      "lat": 51.6167,
      "lon": -0.5667,
      "status": "operational",
      "type": "gateway"
    },
    {
      "name": "Chantilly, VA",
      "lat": 38.910194,
      "lon": -77.472722,
      "status": "planned",
      "type": "gateway"
    },
    {
      "name": "Charcas, Mexico",
      "lat": 23.1314,
      "lon": -101.1136,
      "status": "operational",
      "type": "gateway"
    },
    {
      "name": "Charleston, OR",
      "lat": 43.345,
      "lon": -124.3285,
      "status": "operational",
      "type": "gateway"
    },
    {
      "name": "Charleston, SC",
      "lat": 32.7765,
      "lon": -79.9311,
      "status": "planned",
      "type": "gateway"
    },
    {
      "name": "Chaska, MN",
      "lat": 44.851,
      "lon": -93.598,
      "status": "planned",
      "type": "gateway"
    },
    {
      "name": "Chattanooga, TN",
      "lat": 35.031667,
      "lon": -85.2975,
      "status": "planned",
      "type": "gateway"
    },
    {
      "name": "Cheyenne, WY",
      "lat": 41.14,
      "lon": -104.8202,
      "status": "planned",
      "type": "gateway"
    },
    {
      "name": "Chicago, IL",
      "lat": 41.876139,
      "lon": -87.631944,
      "status": "planned",
      "type": "pop"
    },
    {
      "name": "Chico, CA",
      "lat": 39.77536,
      "lon": -121.91987,
      "status": "planned",
      "type": "gateway"
    },
    {
      "name": "Christchurch, NZ",
      "lat": -43.5321,
      "lon": 172.6362,
      "status": "operational",
      "type": "pop"
    },
    {
      "name": "Cikarang Barat, Indonesia",
      "lat": -6.306293,
      "lon": 107.096755,
      "status": "operational",
      "type": "gateway"
    },
    {
      "name": "Clevedon, NZ",
      "lat": -36.993,
      "lon": 175.0586,
      "status": "operational",
      "type": "gateway"
    },
    {
      "name": "Clinton, IL",
      "lat": 40.1536,
      "lon": -88.9645,
      "status": "operational",
      "type": "gateway"
    },
    {
      "name": "Cobargo, Australia",
      "lat": -36.3886,
      "lon": 149.89,
      "status": "operational",
      "type": "gateway"
    },
    {
      "name": "Colburn, ID",
      "lat": 48.4,
      "lon": -116.55,
      "status": "operational",
      "type": "gateway"
    },
    {
      "name": "Columbus, OH",
      "lat": 39.9612,
      "lon": -82.9988,
      "status": "operational",
      "type": "gateway"
    },
    {
      "name": "Conrad, MT",
      "lat": 48.17,
      "lon": -111.95,
      "status": "operational",
      "type": "gateway"
    },
    {
      "name": "Corpus Christi, TX",
      "lat": 27.7931087,
      "lon": -97.4519272,
      "status": "operational",
      "type": "gateway"
    },
    {
      "name": "Covilhã, Portugal",
      "lat": 40.2833,
      "lon": -7.5,
      "status": "operational",
      "type": "gateway"
    },
    {
      "name": "Cromwell, NZ",
      "lat": -45.05,
      "lon": 169.2,
      "status": "operational",
      "type": "gateway"
    },
    {
      "name": "Dallas, TX",
      "lat": 32.910778,
      "lon": -96.871472,
      "status": "planned",
      "type": "pop"
    },
    {
      "name": "Darwin, Australia",
      "lat": -12.4634,
      "lon": 130.8456,
      "status": "operational",
      "type": "pop"
    },
    {
      "name": "Debeque, CO",
      "lat": 39.28885,
      "lon": -108.20501,
      "status": "planned",
      "type": "gateway"
    },
    {
      "name": "Delta, UT",
      "lat": 39.346083,
      "lon": -112.589361,
      "status": "planned",
      "type": "gateway"
    },
    {
      "name": "Denver, CO",
      "lat": 39.777528,
      "lon": -104.968472,
      "status": "planned",
      "type": "pop"
    },
    {
      "name": "Des Moines, IA",
      "lat": 41.5868,
      "lon": -93.625,
      "status": "planned",
      "type": "gateway"
    },
    {
      "name": "Des Moines, NM",
      "lat": 36.69751,
      "lon": -103.79202,
      "status": "operational",
      "type": "gateway"
    },
    {
      "name": "Dhaka, Bangladesh",
      "lat": 23.8103,
      "lon": 90.4125,
      "status": "operational",
      "type": "pop"
    },
    {
      "name": "Dill City, OK",
      "lat": 35.28,
      "lon": -99.12,
      "status": "operational",
      "type": "gateway"
    },
    {
      "name": "Doha, Qatar",
      "lat": 25.2854,
      "lon": 51.531,
      "status": "operational",
      "type": "pop"
    },
    {
      "name": "Douglas, WY",
      "lat": 42.740139,
      "lon": -105.350417,
      "status": "planned",
      "type": "gateway"
    },
    {
      "name": "Dubois, ID",
      "lat": 44.170361,
      "lon": -112.225139,
      "status": "planned",
      "type": "gateway"
    },
    {
      "name": "Dubuque, IA",
      "lat": 42.444611,
      "lon": -90.6785,
      "status": "operational",
      "type": "gateway"
    },
    {
      "name": "Duluth, MN",
      "lat": 46.828083,
      "lon": -92.130417,
      "status": "planned",
      "type": "gateway"
    },
    {
      "name": "Dumas, TX",
      "lat": 35.8628,
      "lon": -101.9732,
      "status": "operational",
      "type": "gateway"
    },
    {
      "name": "Edison, NJ",
      "lat": 40.521056,
      "lon": -74.345111,
      "status": "planned",
      "type": "gateway"
    },
    {
      "name": "Egan, MN",
      "lat": 44.839333,
      "lon": -93.145639,
      "status": "planned",
      "type": "gateway"
    },
    {
      "name": "El Marques, Mexico",
      "lat": 20.7167,
      "lon": -100.3,
      "status": "operational",
      "type": "gateway"
    },
    {
      "name": "Elbert, CO",
      "lat": 39.2239,
      "lon": -104.5347,
      "status": "operational",
      "type": "gateway"
    },
    {
      "name": "Elfordstown, Ireland",
      "lat": 52.0833,
      "lon": -8.25,
      "status": "operational",
      "type": "gateway"
    },
    {
      "name": "Elkton, MD",
      "lat": 39.6068,
      "lon": -75.8333,
      "status": "planned",
      "type": "gateway"
    },
    {
      "name": "Evanston, WY",
      "lat": 41.2683,
      "lon": -110.9632,
      "status": "operational",
      "type": "gateway"
    },
    {
      "name": "Fair Park, UT",
      "lat": 40.766917,
      "lon": -111.921167,
      "status": "planned",
      "type": "gateway"
    },
    {
      "name": "Fairbanks, AK",
      "lat": 64.8378,
      "lon": -147.7164,
      "status": "operational",
      "type": "gateway"
    },
    {
      "name": "Falda del Carmen, Argentina",
      "lat": -31.5333,
      "lon": -64.45,
      "status": "operational",
      "type": "gateway"
    },
    {
      "name": "Fawley, UK",
      "lat": 50.8167,
      "lon": -1.3333,
      "status": "operational",
      "type": "gateway"
    },
    {
      "name": "Foggia, Italy",
      "lat": 41.4621,
      "lon": 15.5444,
      "status": "operational",
      "type": "gateway"
    },
    {
      "name": "Fort Lauderdale, FL",
      "lat": 26.1224,
      "lon": -80.1373,
      "status": "operational",
      "type": "gateway"
    },
    {
      "name": "Fortaleza, Brazil",
      "lat": -3.735322,
      "lon": -38.461675,
      "status": "planned",
      "type": "pop"
    },
    {
      "name": "Fralklin Park, IL",
      "lat": 41.928778,
      "lon": -87.857444,
      "status": "planned",
      "type": "gateway"
    },
    {
      "name": "Frederick, MD",
      "lat": 39.4143,
      "lon": -77.4105,
      "status": "operational",
      "type": "gateway"
    },
    {
      "name": "Fremont, CA",
      "lat": 37.492056,
      "lon": -121.936722,
      "status": "planned",
      "type": "gateway"
    },
    {
      "name": "Gaffney, SC",
      "lat": 35.0718,
      "lon": -81.6498,
      "status": "operational",
      "type": "gateway"
    },
    {
      "name": "Goodyear, AZ",
      "lat": 33.412128,
      "lon": -112.412853,
      "status": "planned",
      "type": "gateway"
    },
    {
      "name": "Goonhilly, UK",
      "lat": 50.0502,
      "lon": -5.1825,
      "status": "operational",
      "type": "gateway"
    },
    {
      "name": "Gordon, GA",
      "lat": 32.841056,
      "lon": -83.253833,
      "status": "planned",
      "type": "gateway"
    },
    {
      "name": "Grant District, WV",
      "lat": 38.977972,
      "lon": -79.146556,
      "status": "planned",
      "type": "gateway"
    },
    {
      "name": "Greenville, PA",
      "lat": 41.4028,
      "lon": -80.3812,
      "status": "operational",
      "type": "gateway"
    },
    {
      "name": "Guam",
      "lat": 13.44,
      "lon": 144.79,
      "status": "operational",
      "type": "gateway"
    },
    {
      "name": "Guarapari, Brazil",
      "lat": -20.6614,
      "lon": -40.4981,
      "status": "operational",
      "type": "gateway"
    },
    {
      "name": "Guatemala City, Guatemala",
      "lat": 14.6349,
      "lon": -90.5069,
      "status": "operational",
      "type": "pop"
    },
    {
      "name": "Hamshire, TX",
      "lat": 29.8622,
      "lon": -94.6749,
      "status": "operational",
      "type": "gateway"
    },
    {
      "name": "Hawkins, TX",
      "lat": 32.613583,
      "lon": -95.29975,
      "status": "planned",
      "type": "gateway"
    },
    {
      "name": "Hawthorne, CA",
      "lat": 33.9207,
      "lon": -118.328,
      "status": "operational",
      "type": "gateway"
    },
    {
      "name": "Highland Ranch, CO",
      "lat": 39.55,
      "lon": -105.033333,
      "status": "planned",
      "type": "gateway"
    },
    {
      "name": "Hillman, MI",
      "lat": 45.0586,
      "lon": -83.9022,
      "status": "operational",
      "type": "gateway"
    },
    {
      "name": "Hillsboro, TX",
      "lat": 32.011,
      "lon": -97.13,
      "status": "operational",
      "type": "gateway"
    },
    {
      "name": "Hilo, HI",
      "lat": 19.72,
      "lon": -155.08,
      "status": "operational",
      "type": "gateway"
    },
    {
      "name": "Hinds, NZ",
      "lat": -43.8667,
      "lon": 171.5833,
      "status": "operational",
      "type": "gateway"
    },
    {
      "name": "Hitachinaka, Japan",
      "lat": 36.3967,
      "lon": 140.5347,
      "status": "operational",
      "type": "gateway"
    },
    {
      "name": "Hitterdal, MN",
      "lat": 46.9769,
      "lon": -96.2595,
      "status": "operational",
      "type": "gateway"
    },
    {
      "name": "Hoo, UK",
      "lat": 51.42,
      "lon": 0.56,
      "status": "planned",
      "type": "gateway"
    },
    {
      "name": "Hoofddorf, NL",
      "lat": 52.290758,
      "lon": 4.686589,
      "status": "operational",
      "type": "gateway"
    },
    {
      "name": "Howell, UT",
      "lat": 41.836639,
      "lon": -112.435194,
      "status": "planned",
      "type": "gateway"
    },
    {
      "name": "Ibi, Spain",
      "lat": 38.6264,
      "lon": -0.5726,
      "status": "operational",
      "type": "gateway"
    },
    {
      "name": "Ikire, Nigeria",
      "lat": 7.3667,
      "lon": 4.1833,
      "status": "operational",
      "type": "gateway"
    },
    {
      "name": "Inglewood, Australia",
      "lat": -28.416463,
      "lon": 151.094997,
      "status": "planned",
      "type": "gateway"
    },
    {
      "name": "Inman, KS",
      "lat": 38.2319,
      "lon": -97.7725,
      "status": "operational",
      "type": "gateway"
    },
    {
      "name": "Iqaluit, NU",
      "lat": 63.75817,
      "lon": -68.53968,
      "status": "planned",
      "type": "gateway"
    },
    {
      "name": "Irvine, CA",
      "lat": 33.687222,
      "lon": -117.847861,
      "status": "planned",
      "type": "gateway"
    },
    {
      "name": "Isle of Man, UK",
      "lat": 54.13909,
      "lon": -4.49728,
      "status": "operational",
      "type": "gateway"
    },
    {
      "name": "Itaboraí, Brazil",
      "lat": -22.7446,
      "lon": -42.8586,
      "status": "operational",
      "type": "gateway"
    },
    {
      "name": "João Câmara, Brazil",
      "lat": -5.5372,
      "lon": -35.8139,
      "status": "operational",
      "type": "gateway"
    },
    {
      "name": "Johannesburg, South Africa",
      "lat": -26.2041,
      "lon": 28.0473,
      "status": "operational",
      "type": "pop"
    },
    {
      "name": "Juazeiro do Norte, Brazil",
      "lat": -7.215119,
      "lon": -39.336722,
      "status": "planned",
      "type": "gateway"
    },
    {
      "name": "Kalama, WA",
      "lat": 46.01,
      "lon": -122.84,
      "status": "operational",
      "type": "gateway"
    },
    {
      "name": "Kansas City, MO",
      "lat": 39.0997,
      "lon": -94.5786,
      "status": "operational",
      "type": "pop"
    },
    {
      "name": "Karen, Kenya",
      "lat": -1.350242,
      "lon": 36.749856,
      "status": "planned",
      "type": "pop"
    },
    {
      "name": "Kaunas, Lithuania",
      "lat": 54.8985,
      "lon": 23.9036,
      "status": "operational",
      "type": "gateway"
    },
    {
      "name": "Kenansville, FL",
      "lat": 27.8847,
      "lon": -81.0962,
      "status": "operational",
      "type": "gateway"
    },
    {
      "name": "Kendari, Indonesia",
      "lat": -3.977445,
      "lon": 122.511309,
      "status": "operational",
      "type": "gateway"
    },
    {
      "name": "Kent, WA",
      "lat": 47.421056,
      "lon": -122.248139,
      "status": "planned",
      "type": "pop"
    },
    {
      "name": "Ketchikan, AK",
      "lat": 55.342,
      "lon": -131.636,
      "status": "operational",
      "type": "gateway"
    },
    {
      "name": "Ki Ki, Australia",
      "lat": -35.8,
      "lon": 139.7167,
      "status": "operational",
      "type": "gateway"
    },
    {
      "name": "Kiowa, CO",
      "lat": 39.2919558,
      "lon": -104.5052118,
      "status": "planned",
      "type": "gateway"
    },
    {
      "name": "Koonwarra, Australia",
      "lat": -38.51812,
      "lon": 145.95145,
      "status": "operational",
      "type": "gateway"
    },
    {
      "name": "Kuala Lumpur(?), Malaysia",
      "lat": 3.0203,
      "lon": 101.3666,
      "status": "planned",
      "type": "pop"
    },
    {
      "name": "Kuparuk, AK",
      "lat": 70.3316,
      "lon": -149.5947,
      "status": "operational",
      "type": "gateway"
    },
    {
      "name": "Lagos, Nigeria",
      "lat": 6.5244,
      "lon": 3.3792,
      "status": "operational",
      "type": "pop"
    },
    {
      "name": "Lawrence, KS",
      "lat": 38.9717,
      "lon": -95.2353,
      "status": "operational",
      "type": "gateway"
    },
    {
      "name": "Lekki, Nigeria",
      "lat": 6.4698,
      "lon": 3.6015,
      "status": "operational",
      "type": "gateway"
    },
    {
      "name": "Lepe, Spain",
      "lat": 37.2547,
      "lon": -7.2044,
      "status": "operational",
      "type": "gateway"
    },
    {
      "name": "Lihue, HI",
      "lat": 21.999361,
      "lon": -159.378028,
      "status": "planned",
      "type": "gateway"
    },
    {
      "name": "Lima, Peru",
      "lat": -12.148,
      "lon": -77.042,
      "status": "operational",
      "type": "pop"
    },
    {
      "name": "Lindon, UT",
      "lat": 40.332722,
      "lon": -111.731167,
      "status": "planned",
      "type": "gateway"
    },
    {
      "name": "Lisle, IL",
      "lat": 41.800642,
      "lon": -88.096092,
      "status": "planned",
      "type": "gateway"
    },
    {
      "name": "Litchfield, CT",
      "lat": 41.7473,
      "lon": -73.1885,
      "status": "operational",
      "type": "gateway"
    },
    {
      "name": "Litchfield, MN",
      "lat": 45.12,
      "lon": -94.53,
      "status": "operational",
      "type": "gateway"
    },
    {
      "name": "Lithia Springs, GA",
      "lat": 33.745917,
      "lon": -84.5795,
      "status": "planned",
      "type": "gateway"
    },
    {
      "name": "Llano Grande, Mexico",
      "lat": 19.34,
      "lon": -97.008,
      "status": "operational",
      "type": "gateway"
    },
    {
      "name": "Lockport, NY",
      "lat": 43.1709,
      "lon": -78.6903,
      "status": "operational",
      "type": "gateway"
    },
    {
      "name": "London, UK",
      "lat": 51.5074,
      "lon": -0.1278,
      "status": "operational",
      "type": "pop"
    },
    {
      "name": "Loring, ME",
      "lat": 46.95,
      "lon": -67.89,
      "status": "operational",
      "type": "gateway"
    },
    {
      "name": "Los Angeles, CA",
      "lat": 34.0522,
      "lon": -118.2437,
      "status": "operational",
      "type": "pop"
    },
    {
      "name": "Lunenburg, VT",
      "lat": 44.4643,
      "lon": -71.682,
      "status": "operational",
      "type": "gateway"
    },
    {
      "name": "Luz, Brazil",
      "lat": -19.79,
      "lon": -44.7325,
      "status": "operational",
      "type": "gateway"
    },
    {
      "name": "Lynnwood, WA",
      "lat": 47.841694,
      "lon": -122.300944,
      "status": "operational",
      "type": "gateway"
    },
    {
      "name": "Macquarie Park, Australia",
      "lat": -33.785441,
      "lon": 151.131806,
      "status": "operational",
      "type": "gateway"
    },
    {
      "name": "Madera, CA",
      "lat": 36.858778,
      "lon": -119.9105,
      "status": "planned",
      "type": "gateway"
    },
    {
      "name": "Madrid, Spain",
      "lat": 40.4168,
      "lon": -3.7038,
      "status": "operational",
      "type": "pop"
    },
    {
      "name": "Majura, Australia",
      "lat": -35.318363,
      "lon": 149.245865,
      "status": "planned",
      "type": "gateway"
    },
    {
      "name": "Manassas, VA",
      "lat": 38.7509,
      "lon": -77.4753,
      "status": "operational",
      "type": "gateway"
    },
    {
      "name": "Manaus, Brazil",
      "lat": -3.119,
      "lon": -60.0217,
      "status": "operational",
      "type": "gateway"
    },
    {
      "name": "Mandale, NC",
      "lat": 35.895778,
      "lon": -79.226722,
      "status": "operational",
      "type": "gateway"
    },
    {
      "name": "Manistique, MI",
      "lat": 45.9575,
      "lon": -86.2464,
      "status": "operational",
      "type": "gateway"
    },
    {
      "name": "Marathon, FL",
      "lat": 24.713444,
      "lon": -81.087694,
      "status": "planned",
      "type": "gateway"
    },
    {
      "name": "Marathon, ON",
      "lat": 48.754,
      "lon": -86.379,
      "status": "operational",
      "type": "gateway"
    },
    {
      "name": "Marcell, MN",
      "lat": 47.593,
      "lon": -93.6941,
      "status": "operational",
      "type": "gateway"
    },
    {
      "name": "Marsala, Italy",
      "lat": 37.7986,
      "lon": 12.4357,
      "status": "operational",
      "type": "gateway"
    },
    {
      "name": "Marshall, TX",
      "lat": 32.5449,
      "lon": -94.3674,
      "status": "operational",
      "type": "gateway"
    },
    {
      "name": "Mazahua, Mexico",
      "lat": 19.65,
      "lon": -100.05,
      "status": "operational",
      "type": "gateway"
    },
    {
      "name": "McGregor, TX",
      "lat": 31.44,
      "lon": -97.41,
      "status": "operational",
      "type": "gateway"
    },
    {
      "name": "Medellin, Colombia",
      "lat": 6.106,
      "lon": -75.498,
      "status": "planned",
      "type": "pop"
    },
    {
      "name": "Melbourne, Australia",
      "lat": -37.8136,
      "lon": 144.9631,
      "status": "operational",
      "type": "pop"
    },
    {
      "name": "Merida, Mexico",
      "lat": 20.9674,
      "lon": -89.5926,
      "status": "operational",
      "type": "gateway"
    },
    {
      "name": "Merredin, Australia",
      "lat": -31.4833,
      "lon": 118.2833,
      "status": "operational",
      "type": "gateway"
    },
    {
      "name": "Merrillan, WI",
      "lat": 44.45,
      "lon": -90.8333,
      "status": "operational",
      "type": "gateway"
    },
    {
      "name": "Mesa, AZ",
      "lat": 33.421167,
      "lon": -111.85925,
      "status": "planned",
      "type": "gateway"
    },
    {
      "name": "Miami, FL",
      "lat": 25.782647,
      "lon": -80.193158,
      "status": "planned",
      "type": "pop"
    },
    {
      "name": "Milano, Italy",
      "lat": 45.4642,
      "lon": 9.19,
      "status": "operational",
      "type": "gateway"
    },
    {
      "name": "Milwaukee, WI",
      "lat": 43.15125,
      "lon": -88.008778,
      "status": "planned",
      "type": "pop"
    },
    {
      "name": "Minneapolis, MN",
      "lat": 44.970889,
      "lon": -93.254389,
      "status": "planned",
      "type": "pop"
    },
    {
      "name": "Molokai, HI",
      "lat": 21.1333,
      "lon": -157.0167,
      "status": "operational",
      "type": "gateway"
    },
    {
      "name": "Monterrey, Mexico",
      "lat": 25.6866,
      "lon": -100.3161,
      "status": "operational",
      "type": "gateway"
    },
    {
      "name": "Montes Claros, Brazil",
      "lat": -16.735,
      "lon": -43.8617,
      "status": "operational",
      "type": "gateway"
    },
    {
      "name": "Montreal, Canada",
      "lat": 45.5017,
      "lon": -73.5673,
      "status": "operational",
      "type": "pop"
    },
    {
      "name": "Morn Hill, UK",
      "lat": 51.0894,
      "lon": -1.2833,
      "status": "operational",
      "type": "gateway"
    },
    {
      "name": "Mossoró, Brazil",
      "lat": -5.1878,
      "lon": -37.3441,
      "status": "operational",
      "type": "gateway"
    },
    {
      "name": "Mt. Ayr, IN",
      "lat": 39.975,
      "lon": -87.3036,
      "status": "operational",
      "type": "gateway"
    },
    {
      "name": "Muallim, Turkey",
      "lat": 40.0333,
      "lon": 30.05,
      "status": "operational",
      "type": "gateway"
    },
    {
      "name": "Mumbai, India",
      "lat": 19.076,
      "lon": 72.8777,
      "status": "operational",
      "type": "pop"
    },
    {
      "name": "Murayjat, Oman",
      "lat": 23.588,
      "lon": 58.545,
      "status": "operational",
      "type": "gateway"
    },
    {
      "name": "Murrieta, CA",
      "lat": 33.5539,
      "lon": -117.2139,
      "status": "planned",
      "type": "gateway"
    },
    {
      "name": "Myrtle Beach, SC",
      "lat": 33.709972,
      "lon": -78.895833,
      "status": "planned",
      "type": "gateway"
    },
    {
      "name": "Nabiac, Australia",
      "lat": -32.097118,
      "lon": 152.372562,
      "status": "planned",
      "type": "gateway"
    },
    {
      "name": "Nairobi, Kenya",
      "lat": -1.329119,
      "lon": 36.88643,
      "status": "planned",
      "type": "pop"
    },
    {
      "name": "Nemaha, NE",
      "lat": 40.3408,
      "lon": -95.6708,
      "status": "operational",
      "type": "gateway"
    },
    {
      "name": "New Braunfels, TX",
      "lat": 29.703,
      "lon": -98.1245,
      "status": "operational",
      "type": "gateway"
    },
    {
      "name": "New York, NY",
      "lat": 40.72,
      "lon": -74.00475,
      "status": "planned",
      "type": "pop"
    },
    {
      "name": "Niland, CA",
      "lat": 33.2204867,
      "lon": -115.4668146,
      "status": "planned",
      "type": "gateway"
    },
    {
      "name": "Ningi, Australia",
      "lat": -27.068417,
      "lon": 153.05476,
      "status": "planned",
      "type": "gateway"
    },
    {
      "name": "Nome, AK",
      "lat": 64.5011,
      "lon": -165.4064,
      "status": "operational",
      "type": "gateway"
    },
    {
      "name": "Norcross, GA",
      "lat": 33.941,
      "lon": -84.2135,
      "status": "operational",
      "type": "gateway"
    },
    {
      "name": "North Bend, OR",
      "lat": 43.4073,
      "lon": -124.2242,
      "status": "operational",
      "type": "gateway"
    },
    {
      "name": "North Bend, WA",
      "lat": 47.4957,
      "lon": -121.7868,
      "status": "planned",
      "type": "gateway"
    },
    {
      "name": "North Miami, FL",
      "lat": 25.949611,
      "lon": -80.191806,
      "status": "operational",
      "type": "gateway"
    },
    {
      "name": "Noviciado, Chile",
      "lat": -33.4167,
      "lon": -70.9333,
      "status": "operational",
      "type": "gateway"
    },
    {
      "name": "Nueva Vizcaya, Philippines",
      "lat": 16.423,
      "lon": 121.114,
      "status": "operational",
      "type": "gateway"
    },
    {
      "name": "Oistins, Barbados",
      "lat": 13.062759,
      "lon": -59.537583,
      "status": "operational",
      "type": "gateway"
    },
    {
      "name": "Olympia, WA",
      "lat": 47.0379,
      "lon": -122.9007,
      "status": "planned",
      "type": "gateway"
    },
    {
      "name": "Osasco, Brazil",
      "lat": -23.490533,
      "lon": -46.775014,
      "status": "planned",
      "type": "gateway"
    },
    {
      "name": "Otaru, Japan",
      "lat": 43.1907,
      "lon": 140.9945,
      "status": "operational",
      "type": "gateway"
    },
    {
      "name": "Oxford, AL",
      "lat": 33.593639,
      "lon": -85.876833,
      "status": "planned",
      "type": "gateway"
    },
    {
      "name": "Palangka Raya, Indonesia",
      "lat": -2.21866,
      "lon": 113.925406,
      "status": "operational",
      "type": "gateway"
    },
    {
      "name": "Panaca, NV",
      "lat": 37.8,
      "lon": -114.39,
      "status": "operational",
      "type": "gateway"
    },
    {
      "name": "Passa Quatro, Brazil",
      "lat": -22.3869,
      "lon": -44.9708,
      "status": "operational",
      "type": "gateway"
    },
    {
      "name": "Peñuelas, Mexico",
      "lat": 21.8422,
      "lon": -102.3344,
      "status": "operational",
      "type": "gateway"
    },
    {
      "name": "Perry, FL",
      "lat": 30.061583,
      "lon": -83.580528,
      "status": "planned",
      "type": "gateway"
    },
    {
      "name": "Perth, Australia",
      "lat": -31.9505,
      "lon": 115.8605,
      "status": "operational",
      "type": "pop"
    },
    {
      "name": "Petra Jaya, Malaysia",
      "lat": 1.606503,
      "lon": 110.340002,
      "status": "operational",
      "type": "gateway"
    },
    {
      "name": "Phoenix, AZ",
      "lat": 33.6851385,
      "lon": -112.0973229,
      "status": "operational",
      "type": "gateway"
    },
    {
      "name": "Pimba, Australia",
      "lat": -31.2833,
      "lon": 136.8,
      "status": "operational",
      "type": "gateway"
    },
    {
      "name": "Pine Valley, CA",
      "lat": 32.70139,
      "lon": -116.36509,
      "status": "planned",
      "type": "gateway"
    },
    {
      "name": "Piscataway, NJ",
      "lat": 40.54335,
      "lon": -74.49797,
      "status": "planned",
      "type": "gateway"
    },
    {
      "name": "Ponce, PR",
      "lat": 18.0111,
      "lon": -66.6141,
      "status": "operational",
      "type": "gateway"
    },
    {
      "name": "Port Matilda, PA",
      "lat": 40.8015,
      "lon": -78.0489,
      "status": "operational",
      "type": "gateway"
    },
    {
      "name": "Port St. Lucie, FL",
      "lat": 27.281278,
      "lon": -80.483139,
      "status": "planned",
      "type": "gateway"
    },
    {
      "name": "Porto Alegre, Brazil",
      "lat": -30.0346,
      "lon": -51.2177,
      "status": "operational",
      "type": "gateway"
    },
    {
      "name": "Pott’s Junction, GU",
      "lat": 13.616361,
      "lon": 144.858722,
      "status": "planned",
      "type": "gateway"
    },
    {
      "name": "Presidente Prudente, Brazil",
      "lat": -22.1257,
      "lon": -51.3875,
      "status": "operational",
      "type": "gateway"
    },
    {
      "name": "Prosser, WA",
      "lat": 46.2068,
      "lon": -119.7687,
      "status": "operational",
      "type": "gateway"
    },
    {
      "name": "Puerto Montt, Chile",
      "lat": -41.4689,
      "lon": -72.9411,
      "status": "operational",
      "type": "gateway"
    },
    {
      "name": "Puerto Saavedra, Chile",
      "lat": -38.7833,
      "lon": -73.3833,
      "status": "operational",
      "type": "gateway"
    },
    {
      "name": "Punta Arenas, Chile",
      "lat": -53.1638,
      "lon": -70.9171,
      "status": "operational",
      "type": "gateway"
    },
    {
      "name": "Punta Gorda, FL",
      "lat": 26.9298,
      "lon": -82.0454,
      "status": "operational",
      "type": "gateway"
    },
    {
      "name": "Puwera, NZ",
      "lat": -35.8,
      "lon": 174.2333,
      "status": "operational",
      "type": "gateway"
    },
    {
      "name": "Quezon (province), Philippines",
      "lat": 13.953,
      "lon": 121.699,
      "status": "operational",
      "type": "gateway"
    },
    {
      "name": "Quincy, WA",
      "lat": 47.2343,
      "lon": -119.8526,
      "status": "planned",
      "type": "gateway"
    },
    {
      "name": "Redmond, WA",
      "lat": 47.674,
      "lon": -122.1215,
      "status": "operational",
      "type": "gateway"
    },
    {
      "name": "Richardson, TX",
      "lat": 32.9483,
      "lon": -96.7299,
      "status": "planned",
      "type": "gateway"
    },
    {
      "name": "Rio de Janeiro, Brazil",
      "lat": -22.811156,
      "lon": -43.352822,
      "status": "planned",
      "type": "gateway"
    },
    {
      "name": "Rio Negro, Brazil",
      "lat": -26.105,
      "lon": -49.7978,
      "status": "operational",
      "type": "gateway"
    },
    {
      "name": "Robbins, CA",
      "lat": 38.875,
      "lon": -121.70705555555556,
      "status": "planned",
      "type": "gateway"
    },
    {
      "name": "Roberts, WI",
      "lat": 44.9839,
      "lon": -92.556,
      "status": "operational",
      "type": "gateway"
    },
    {
      "name": "Robertsdale, AL",
      "lat": 30.55,
      "lon": -87.71,
      "status": "operational",
      "type": "gateway"
    },
    {
      "name": "Rolândia, Brazil",
      "lat": -23.337575,
      "lon": -51.331039,
      "status": "planned",
      "type": "gateway"
    },
    {
      "name": "Rolesville, NC",
      "lat": 35.93,
      "lon": -78.46,
      "status": "operational",
      "type": "gateway"
    },
    {
      "name": "Rolette, ND",
      "lat": 48.6597,
      "lon": -99.8406,
      "status": "operational",
      "type": "gateway"
    },
    {
      "name": "Roll, AZ",
      "lat": 32.8128,
      "lon": -113.9953,
      "status": "operational",
      "type": "gateway"
    },
    {
      "name": "Romulus, NY",
      "lat": 42.7584,
      "lon": -76.8347,
      "status": "operational",
      "type": "gateway"
    },
    {
      "name": "Saguenay, QC",
      "lat": 48.4279,
      "lon": -71.0548,
      "status": "operational",
      "type": "gateway"
    },
    {
      "name": "Sale, Australia",
      "lat": -38.096672,
      "lon": 147.09117,
      "status": "planned",
      "type": "gateway"
    },
    {
      "name": "Salem, OR",
      "lat": 44.9452748,
      "lon": -122.8885664,
      "status": "planned",
      "type": "gateway"
    },
    {
      "name": "Salt Lake City, UT",
      "lat": 40.7608,
      "lon": -111.891,
      "status": "operational",
      "type": "pop"
    },
    {
      "name": "Sambro Creek, NS",
      "lat": 44.4833,
      "lon": -63.6,
      "status": "operational",
      "type": "gateway"
    },
    {
      "name": "San Antonio, TX",
      "lat": 29.4241,
      "lon": -98.4936,
      "status": "planned",
      "type": "gateway"
    },
    {
      "name": "San Clemente, Chile",
      "lat": -35.5333,
      "lon": -71.4833,
      "status": "operational",
      "type": "gateway"
    },
    {
      "name": "San Jose, CA",
      "lat": 37.242139,
      "lon": -121.7815,
      "status": "planned",
      "type": "pop"
    },
    {
      "name": "Sanderson, TX",
      "lat": 30.1421,
      "lon": -102.3949,
      "status": "operational",
      "type": "gateway"
    },
    {
      "name": "Sandston, VA",
      "lat": 37.490139,
      "lon": -77.246139,
      "status": "planned",
      "type": "gateway"
    },
    {
      "name": "Santa Clara, CA",
      "lat": 37.399194,
      "lon": -121.980333,
      "status": "planned",
      "type": "gateway"
    },
    {
      "name": "Santa Elena, Chile",
      "lat": -36.8167,
      "lon": -72.0167,
      "status": "operational",
      "type": "gateway"
    },
    {
      "name": "Santana de Parnaíba, Brazil",
      "lat": -23.4431,
      "lon": -46.9186,
      "status": "operational",
      "type": "gateway"
    },
    {
      "name": "Santiago de los Caballeros, DR",
      "lat": 19.4517,
      "lon": -70.697,
      "status": "operational",
      "type": "gateway"
    },
    {
      "name": "Santiago, Chile",
      "lat": -33.4489,
      "lon": -70.6693,
      "status": "operational",
      "type": "pop"
    },
    {
      "name": "São Gonçalo do Amarante, Brazil",
      "lat": -3.6075,
      "lon": -38.9722,
      "status": "planned",
      "type": "gateway"
    },
    {
      "name": "Sao Paulo, Brazil",
      "lat": -23.5505,
      "lon": -46.6333,
      "status": "operational",
      "type": "pop"
    },
    {
      "name": "Savanna, IL",
      "lat": 42.0947,
      "lon": -90.1543,
      "status": "planned",
      "type": "gateway"
    },
    {
      "name": "Savanna, OK",
      "lat": 34.78930555555555,
      "lon": -95.8765,
      "status": "operational",
      "type": "gateway"
    },
    {
      "name": "Savannah, TN",
      "lat": 35.2245,
      "lon": -88.2492,
      "status": "operational",
      "type": "gateway"
    },
    {
      "name": "Seatle, WA",
      "lat": 47.614472,
      "lon": -122.339,
      "status": "planned",
      "type": "gateway"
    },
    {
      "name": "Seattle, WA",
      "lat": 47.6062,
      "lon": -122.3321,
      "status": "operational",
      "type": "pop"
    },
    {
      "name": "Secaucus, NJ",
      "lat": 40.785472,
      "lon": -74.068611,
      "status": "planned",
      "type": "gateway"
    },
    {
      "name": "Sellheim, Australia",
      "lat": -19.999722,
      "lon": 146.42166,
      "status": "operational",
      "type": "gateway"
    },
    {
      "name": "Shakopee, MN",
      "lat": 44.779667,
      "lon": -93.462667,
      "status": "planned",
      "type": "gateway"
    },
    {
      "name": "Sheffield, IL",
      "lat": 41.3592,
      "lon": -89.7373,
      "status": "operational",
      "type": "gateway"
    },
    {
      "name": "Singapore, Singapore",
      "lat": 1.397598,
      "lon": 103.83539,
      "status": "operational",
      "type": "pop"
    },
    {
      "name": "Sinop, Brazil",
      "lat": -11.86,
      "lon": -55.51,
      "status": "operational",
      "type": "gateway"
    },
    {
      "name": "Slope County, ND",
      "lat": 46.45,
      "lon": -103.95,
      "status": "operational",
      "type": "gateway"
    },
    {
      "name": "Sofia, Bulgaria",
      "lat": 42.6977,
      "lon": 23.3219,
      "status": "operational",
      "type": "pop"
    },
    {
      "name": "Springbrook Creek, Australia",
      "lat": -24.8333,
      "lon": 152.1167,
      "status": "operational",
      "type": "gateway"
    },
    {
      "name": "Springer, OK",
      "lat": 34.2853,
      "lon": -97.1317,
      "status": "operational",
      "type": "gateway"
    },
    {
      "name": "St. John's, NL",
      "lat": 47.5615,
      "lon": -52.7126,
      "status": "operational",
      "type": "gateway"
    },
    {
      "name": "Sullivan, ME",
      "lat": 44.5314,
      "lon": -68.2022,
      "status": "operational",
      "type": "gateway"
    },
    {
      "name": "Sunset, TX",
      "lat": 33.4485415,
      "lon": -97.7767442,
      "status": "operational",
      "type": "gateway"
    },
    {
      "name": "Surubim, Brazil",
      "lat": -7.8311,
      "lon": -35.7531,
      "status": "operational",
      "type": "gateway"
    },
    {
      "name": "Suva, Fiji",
      "lat": -18.1416,
      "lon": 178.4419,
      "status": "operational",
      "type": "gateway"
    },
    {
      "name": "Sydney, Australia",
      "lat": -33.8688,
      "lon": 151.2093,
      "status": "operational",
      "type": "pop"
    },
    {
      "name": "Tapachula, Mexico",
      "lat": 14.9032,
      "lon": -92.2577,
      "status": "operational",
      "type": "gateway"
    },
    {
      "name": "Te Hana, NZ",
      "lat": -36.2667,
      "lon": 174.55,
      "status": "operational",
      "type": "gateway"
    },
    {
      "name": "Tea Gardens, Australia",
      "lat": -32.6667,
      "lon": 152.15,
      "status": "operational",
      "type": "gateway"
    },
    {
      "name": "Tempe, AZ",
      "lat": 33.4255,
      "lon": -111.94,
      "status": "operational",
      "type": "pop"
    },
    {
      "name": "Terang, Australia",
      "lat": -38.243179,
      "lon": 142.92862,
      "status": "planned",
      "type": "gateway"
    },
    {
      "name": "The Dalles, OR",
      "lat": 45.5946,
      "lon": -121.1787,
      "status": "planned",
      "type": "gateway"
    },
    {
      "name": "Thomaston, GA",
      "lat": 32.947083,
      "lon": -84.261806,
      "status": "planned",
      "type": "gateway"
    },
    {
      "name": "Tionesta, CA",
      "lat": 41.1811,
      "lon": -122.8747,
      "status": "operational",
      "type": "gateway"
    },
    {
      "name": "Toa Baja, PR",
      "lat": 18.4441,
      "lon": -66.2545,
      "status": "operational",
      "type": "gateway"
    },
    {
      "name": "Tokyo, Japan",
      "lat": 35.6762,
      "lon": 139.6503,
      "status": "operational",
      "type": "pop"
    },
    {
      "name": "Toonpan, Australia",
      "lat": -19.2833,
      "lon": 146.75,
      "status": "operational",
      "type": "gateway"
    },
    {
      "name": "Torrumbarry, Australia",
      "lat": -36.0333,
      "lon": 144.5833,
      "status": "operational",
      "type": "gateway"
    },
    {
      "name": "Tracy City, TN",
      "lat": 35.2595,
      "lon": -85.7369,
      "status": "operational",
      "type": "gateway"
    },
    {
      "name": "Tromsø, Norway",
      "lat": 69.6496,
      "lon": 18.956,
      "status": "operational",
      "type": "gateway"
    },
    {
      "name": "Tucson, AZ",
      "lat": 32.170139,
      "lon": -110.957694,
      "status": "planned",
      "type": "gateway"
    },
    {
      "name": "Tukwila, WA",
      "lat": 47.508889,
      "lon": -122.299361,
      "status": "planned",
      "type": "gateway"
    },
    {
      "name": "Tumon, GU",
      "lat": 13.502805555555556,
      "lon": 144.80519444444445,
      "status": "operational",
      "type": "gateway"
    },
    {
      "name": "Unalaska, AK",
      "lat": 53.8791,
      "lon": -166.5422,
      "status": "operational",
      "type": "gateway"
    },
    {
      "name": "Uruguaiana, Brazil",
      "lat": -29.7547,
      "lon": -57.0883,
      "status": "operational",
      "type": "gateway"
    },
    {
      "name": "Usingen, Germany",
      "lat": 50.3356,
      "lon": 8.5361,
      "status": "operational",
      "type": "gateway"
    },
    {
      "name": "Vernon, UT",
      "lat": 40.09,
      "lon": -112.43,
      "status": "operational",
      "type": "gateway"
    },
    {
      "name": "Villahermosa, Mexico",
      "lat": 17.9893,
      "lon": -92.9472,
      "status": "operational",
      "type": "gateway"
    },
    {
      "name": "Villarejo de Salvanes, Spain",
      "lat": 40.1667,
      "lon": -3.2667,
      "status": "operational",
      "type": "gateway"
    },
    {
      "name": "Villenave-d'Ornon, France",
      "lat": 44.76,
      "lon": -0.5544,
      "status": "operational",
      "type": "gateway"
    },
    {
      "name": "Virginia Beach, VA",
      "lat": 36.783806,
      "lon": -76.009278,
      "status": "planned",
      "type": "gateway"
    },
    {
      "name": "Wagin, Australia",
      "lat": -33.3167,
      "lon": 117.35,
      "status": "operational",
      "type": "gateway"
    },
    {
      "name": "Warra, Australia",
      "lat": -26.9833,
      "lon": 150.9333,
      "status": "operational",
      "type": "gateway"
    },
    {
      "name": "Warren, MO",
      "lat": 38.7728,
      "lon": -91.1643,
      "status": "operational",
      "type": "gateway"
    },
    {
      "name": "Warsaw, Poland",
      "lat": 52.2297,
      "lon": 21.0122,
      "status": "operational",
      "type": "pop"
    },
    {
      "name": "Watkins, CO",
      "lat": 39.75825,
      "lon": -104.617028,
      "status": "planned",
      "type": "gateway"
    },
    {
      "name": "Wellington, UT",
      "lat": 39.540083,
      "lon": -110.692833,
      "status": "planned",
      "type": "gateway"
    },
    {
      "name": "Wellington, VA",
      "lat": 38.777056,
      "lon": -77.546583,
      "status": "planned",
      "type": "gateway"
    },
    {
      "name": "West Jordan, UT",
      "lat": 40.6196667,
      "lon": -111.9860556,
      "status": "operational",
      "type": "gateway"
    },
    {
      "name": "Westbury NY",
      "lat": 40.755856,
      "lon": -73.55785,
      "status": "planned",
      "type": "gateway"
    },
    {
      "name": "Wherstead, UK",
      "lat": 52.0333,
      "lon": 1.15,
      "status": "operational",
      "type": "gateway"
    },
    {
      "name": "Wichita Falls, TX",
      "lat": 33.9137,
      "lon": -98.4934,
      "status": "planned",
      "type": "gateway"
    },
    {
      "name": "Willemstad, Curaçao",
      "lat": 12.1696,
      "lon": -68.99,
      "status": "operational",
      "type": "gateway"
    },
    {
      "name": "Willows, Australia",
      "lat": -19.3667,
      "lon": 146.7833,
      "status": "operational",
      "type": "gateway"
    },
    {
      "name": "Wise, NC",
      "lat": 35.2407,
      "lon": -79.1151,
      "status": "operational",
      "type": "gateway"
    },
    {
      "name": "Wise, VA",
      "lat": 36.977333,
      "lon": -82.528,
      "status": "planned",
      "type": "gateway"
    },
    {
      "name": "Wola Krobowska, Poland",
      "lat": 50.35,
      "lon": 20.55,
      "status": "operational",
      "type": "gateway"
    },
    {
      "name": "Woodwalton, UK",
      "lat": 52.4167,
      "lon": -0.2833,
      "status": "operational",
      "type": "gateway"
    },
    {
      "name": "Yamaguchi, Japan",
      "lat": 34.1861,
      "lon": 131.4706,
      "status": "operational",
      "type": "gateway"
    },
    {
      "name": "York, PA",
      "lat": 39.9626,
      "lon": -76.7277,
      "status": "operational",
      "type": "gateway"
    }
  ]
}